{"type":"FeatureCollection","crs":{"type":"name","properties":{"name":"urn:ogc:def:crs:OGC:1.3:CRS84"}},"features":[{"type":"Feature","properties":{"ID":1,"COLOR":"#D2641E","LAYER":"Terminal de Onibus Existente","NOME":"Term. Amaral Gurgel","SUBPREF":"SP-SE","RESP":"SPTrans"},"geometry":{"type":"Point","coordinates":[-46.64780899116083,-23.539036619835606]}},{"type":"Feature","properties":{"ID":2,"COLOR":"#D2641E","LAYER":"Terminal de Onibus Existente","NOME":"Term. Aricanduva","SUBPREF":"SP-PE","RESP":"SPTrans"},"geometry":{"type":"Point","coordinates":[-46.55404399167044,-23.52801962031164]}},{"type":"Feature","properties":{"ID":3,"COLOR":"#D2641E","LAYER":"Terminal de Onibus Existente","NOME":"Term. Bandeira","SUBPREF":"SP-SE","RESP":"SPTrans"},"geometry":{"type":"Point","coordinates":[-46.63917399119933,-23.549282619333145]}},{"type":"Feature","properties":{"ID":4,"COLOR":"#D2641E","LAYER":"Terminal de Onibus Existente","NOME":"Term. Capelinha","SUBPREF":"SP-CL","RESP":"SPTrans"},"geometry":{"type":"Point","coordinates":[-46.76169999045818,-23.654498614318932]}},{"type":"Feature","properties":{"ID":5,"COLOR":"#D2641E","LAYER":"Terminal de Onibus Existente","NOME":"Term. Carr?o","SUBPREF":"SP-AF","RESP":"SPTrans"},"geometry":{"type":"Point","coordinates":[-46.52216799181988,-23.55811861883261]}},{"type":"Feature","properties":{"ID":6,"COLOR":"#D2641E","LAYER":"Terminal de Onibus Existente","NOME":"Term. Casa Verde","SUBPREF":"SP-CV","RESP":"SPTrans"},"geometry":{"type":"Point","coordinates":[-46.662167991116874,-23.495931621936883]}},{"type":"Feature","properties":{"ID":7,"COLOR":"#D2641E","LAYER":"Terminal de Onibus Existente","NOME":"Term. Cid. Tiradentes","SUBPREF":"SP-CT","RESP":"SPTrans"},"geometry":{"type":"Point","coordinates":[-46.40790499241664,-23.5829606175632]}},{"type":"Feature","properties":{"ID":8,"COLOR":"#D2641E","LAYER":"Terminal de Onibus Existente","NOME":"Term. Grajau","SUBPREF":"SP-CS","RESP":"SPTrans"},"geometry":{"type":"Point","coordinates":[-46.695849990750524,-23.735254610372852]}},{"type":"Feature","properties":{"ID":9,"COLOR":"#D2641E","LAYER":"Terminal de Onibus Existente","NOME":"Term. Guarapiranga","SUBPREF":"SP-MB","RESP":"SPTrans"},"geometry":{"type":"Point","coordinates":[-46.734599990593395,-23.668398613628305]}},{"type":"Feature","properties":{"ID":10,"COLOR":"#D2641E","LAYER":"Terminal de Onibus Existente","NOME":"Term. Jardim Angela","SUBPREF":"SP-MB","RESP":"SPTrans"},"geometry":{"type":"Point","coordinates":[-46.773475990365476,-23.69008261260692]}},{"type":"Feature","properties":{"ID":11,"COLOR":"#D2641E","LAYER":"Terminal de Onibus Existente","NOME":"Term. Jardim Brit?nia","SUBPREF":"SP-PR","RESP":"SPTrans"},"geometry":{"type":"Point","coordinates":[-46.78681499050607,-23.430725625189286]}},{"type":"Feature","properties":{"ID":12,"COLOR":"#D2641E","LAYER":"Terminal de Onibus Existente","NOME":"Term. Joao Dias","SUBPREF":"SP-CL","RESP":"SPTrans"},"geometry":{"type":"Point","coordinates":[-46.733456990619366,-23.64363661482506]}},{"type":"Feature","properties":{"ID":13,"COLOR":"#D2641E","LAYER":"Terminal de Onibus Existente","NOME":"Term. Lapa","SUBPREF":"SP-LA","RESP":"SPTrans"},"geometry":{"type":"Point","coordinates":[-46.699899990896974,-23.520098620788385]}},{"type":"Feature","properties":{"ID":14,"COLOR":"#D2641E","LAYER":"Terminal de Onibus Existente","NOME":"Term. Largo do Campo Limpo","SUBPREF":"SP-CL","RESP":"SPTrans"},"geometry":{"type":"Point","coordinates":[-46.77194999042171,-23.631395615443648]}},{"type":"Feature","properties":{"ID":15,"COLOR":"#D2641E","LAYER":"Terminal de Onibus Existente","NOME":"Term. Parelheiros","SUBPREF":"SP-PA","RESP":"SPTrans"},"geometry":{"type":"Point","coordinates":[-46.72682899050791,-23.827848605930022]}},{"type":"Feature","properties":{"ID":16,"COLOR":"#D2641E","LAYER":"Terminal de Onibus Existente","NOME":"Term. Parque D. Pedro II","SUBPREF":"SP-SE","RESP":"SPTrans"},"geometry":{"type":"Point","coordinates":[-46.630084991250556,-23.54586261949321]}},{"type":"Feature","properties":{"ID":17,"COLOR":"#D2641E","LAYER":"Terminal de Onibus Existente","NOME":"Term. Penha","SUBPREF":"SP-PE","RESP":"SPTrans"},"geometry":{"type":"Point","coordinates":[-46.54669999171654,-23.518398620774093]}},{"type":"Feature","properties":{"ID":18,"COLOR":"#D2641E","LAYER":"Terminal de Onibus Existente","NOME":"Term. Pinheiros","SUBPREF":"SP-PI","RESP":"SPTrans"},"geometry":{"type":"Point","coordinates":[-46.70141399085313,-23.565887618568567]}},{"type":"Feature","properties":{"ID":19,"COLOR":"#D2641E","LAYER":"Terminal de Onibus Existente","NOME":"Term. Pirituba","SUBPREF":"SP-PJ","RESP":"SPTrans"},"geometry":{"type":"Point","coordinates":[-46.72607999078419,-23.485950622463704]}},{"type":"Feature","properties":{"ID":20,"COLOR":"#D2641E","LAYER":"Terminal de Onibus Existente","NOME":"Term. Princesa Isabel","SUBPREF":"SP-SE","RESP":"SPTrans"},"geometry":{"type":"Point","coordinates":[-46.644299991183416,-23.533998620077746]}},{"type":"Feature","properties":{"ID":21,"COLOR":"#D2641E","LAYER":"Terminal de Onibus Existente","NOME":"Term. Sacoma","SUBPREF":"SP-IP","RESP":"SPTrans"},"geometry":{"type":"Point","coordinates":[-46.60249999135646,-23.602598616726173]}},{"type":"Feature","properties":{"ID":22,"COLOR":"#D2641E","LAYER":"Terminal de Onibus Existente","NOME":"Term. Santo Amaro","SUBPREF":"SP-SA","RESP":"SPTrans"},"geometry":{"type":"Point","coordinates":[-46.71213299072624,-23.65400261430931]}},{"type":"Feature","properties":{"ID":23,"COLOR":"#D2641E","LAYER":"Terminal de Onibus Existente","NOME":"Term. Sao Miguel","SUBPREF":"SP-MP","RESP":"SPTrans"},"geometry":{"type":"Point","coordinates":[-46.434819992332294,-23.4912846220256]}},{"type":"Feature","properties":{"ID":24,"COLOR":"#D2641E","LAYER":"Terminal de Onibus Existente","NOME":"Term. Sapopemba","SUBPREF":"SP-VP","RESP":"SPTrans"},"geometry":{"type":"Point","coordinates":[-46.50028799189873,-23.61387861611806]}},{"type":"Feature","properties":{"ID":25,"COLOR":"#D2641E","LAYER":"Terminal de Onibus Existente","NOME":"Term. Varginha","SUBPREF":"SP-PA","RESP":"SPTrans"},"geometry":{"type":"Point","coordinates":[-46.71589199061568,-23.767778608817164]}},{"type":"Feature","properties":{"ID":26,"COLOR":"#D2641E","LAYER":"Terminal de Onibus Existente","NOME":"Term. Mercado","SUBPREF":"SP-SE","RESP":"SPTrans"},"geometry":{"type":"Point","coordinates":[-46.62938499125381,-23.54653261946028]}},{"type":"Feature","properties":{"ID":27,"COLOR":"#D2641E","LAYER":"Terminal de Onibus Existente","NOME":"Term. Vila Nova Cachoeirinha","SUBPREF":"SP-CV","RESP":"SPTrans"},"geometry":{"type":"Point","coordinates":[-46.66890499109754,-23.474228622995426]}},{"type":"Feature","properties":{"ID":28,"COLOR":"#D2641E","LAYER":"Terminal de Onibus Existente","NOME":"Term. Vila Prudente","SUBPREF":"SP-VP","RESP":"SPTrans"},"geometry":{"type":"Point","coordinates":[-46.58486099146515,-23.583688617631225]}},{"type":"Feature","properties":{"ID":29,"COLOR":"#D2641E","LAYER":"Terminal de Onibus Existente","NOME":"Term. A. E. Carvalho","SUBPREF":"SP-IQ","RESP":"SPTrans"},"geometry":{"type":"Point","coordinates":[-46.47549999209783,-23.51719862079045]}}]}